name,latitude,longitude,cardiology_rating,orthopedic_rating,icu_beds,emergency_services,doctor_experience,patient_satisfaction,cost_index,rule_score_feature_quality,rule_score_feature_capacity,rule_score_feature_affordability,rule_score_feature_specialty,rule_score_overall,score
Gayatri Hospital And Trauma Centre,23.249134,77.488308,4.58,4.16,41,1,4.34,4.18,1,0.783,0.8599999999999999,1.0,0.7970000000000002,4.5086,4.5086
Suyash Hospital,23.2696244,77.3956623,4.24,3.93,49,1,3.94,4.1,1,0.6971666666666666,0.9844444444444445,1.0,0.7001666666666668,4.444133333333333,4.444133333333333
MASTERLAL SINGH HOSPITAL,23.2714472,77.3916972,4.63,2.9,50,1,3.33,4.27,1,0.6674999999999999,1.0,1.0,0.6171666666666666,4.3864,4.3864
Indira IVF Bhopal,23.231072,77.443582,4.99,2.5,43,1,3.82,4.96,2,0.7911666666666666,0.891111111111111,0.75,0.6231666666666666,4.379533333333333,4.379533333333333
ArogyaNidhi Hospital,23.348469,77.399598,4.64,2.08,27,1,4.74,4.8,1,0.7746666666666666,0.6422222222222222,1.0,0.496,4.242466666666667,4.242466666666667
Choudhary Hospital,23.2536634,77.4280921,4.42,2.75,47,1,4.38,4.62,3,0.7404999999999999,0.9533333333333334,0.5,0.5561666666666667,4.217599999999999,4.217599999999999
Unique Hospital,23.2635646,77.3938354,4.77,4.71,49,1,3.41,2.94,3,0.6466666666666665,0.9844444444444445,0.5,0.9143333333333334,4.207633333333334,4.207633333333334
Carewell Multispeciality Hospital,23.281349,77.376758,4.99,3.82,42,0,3.93,3.51,1,0.7195,0.5755555555555555,1.0,0.8211666666666666,4.2072666666666665,4.2072666666666665
"Lakecity Hospital, Bhopal",23.2321079,77.4405538,4.69,3.73,22,1,3.97,3.9,1,0.7216666666666667,0.5644444444444444,1.0,0.7526666666666668,4.181633333333334,4.181633333333334
Pulse Hospital,23.2605895,77.4049403,4.03,4.5,32,1,4.04,3.4,1,0.6378333333333334,0.72,1.0,0.7471666666666668,4.1709,4.1709
The Glory Skin Clinic,23.199138,77.447214,4.99,2.53,40,1,4.9,2.25,1,0.5936666666666667,0.8444444444444443,1.0,0.6276666666666667,4.162133333333333,4.162133333333333
Siddharth Eye Hospital,23.233081,77.3953892,3.88,4.01,39,1,2.43,4.0,1,0.5485,0.8288888888888888,1.0,0.6461666666666667,4.088266666666667,4.088266666666667
Police Hospital,23.2465243,77.4113718,4.78,4.26,47,0,3.11,4.32,3,0.7433333333333333,0.6533333333333333,0.5,0.8486666666666667,4.0846,4.0846
ASG Eye Hospital,23.2154253,77.4388478,4.56,3.14,39,1,3.57,4.96,4,0.7563333333333333,0.8288888888888888,0.25,0.6403333333333333,4.060766666666667,4.060766666666667
"Divisional Railway Hospital, Bhopal",23.280011,77.422307,2.95,3.69,38,1,3.99,4.49,1,0.5770000000000001,0.8133333333333332,1.0,0.4276666666666667,4.053800000000001,4.053800000000001
Colony Hospital,23.221097,77.434557,4.01,3.64,44,1,3.59,3.3,2,0.5524999999999999,0.9066666666666667,0.75,0.6145,4.0306,4.0306
Naman Hospital,23.1927209,77.433726,4.81,4.58,36,1,2.39,2.67,2,0.5498333333333333,0.7822222222222222,0.75,0.9021666666666667,4.019566666666666,4.019566666666666
Chirayu Medical College and Hospital,23.2688064,77.3081296,3.91,4.43,38,1,2.27,3.24,1,0.48633333333333334,0.8133333333333332,1.0,0.7146666666666668,4.0039,4.0039
Srijan General Hospital And Nursing Home,23.2813234,77.4662053,3.75,4.34,41,1,4.55,3.23,3,0.6141666666666666,0.8599999999999999,0.5,0.6718333333333333,3.9928,3.9928
Health Centre,23.1874259,77.3652899,4.15,3.52,21,0,4.63,4.77,1,0.7791666666666666,0.24888888888888888,1.0,0.6221666666666668,3.9920666666666667,3.9920666666666667
Kshitij Hospital,23.262956,77.3803829,4.43,4.71,32,0,4.7,4.71,4,0.8699999999999999,0.42,0.25,0.8520000000000001,3.9880999999999998,3.9880999999999998
Suyash Mother and Child Hospital,23.2083848,77.4180633,2.63,4.82,47,1,4.54,4.82,4,0.6658333333333334,0.9533333333333334,0.25,0.5385,3.9878,3.9878
Ballabh ENT Hospital,23.2633324,77.3992566,4.35,3.91,47,0,2.44,3.54,1,0.5529999999999999,0.6533333333333333,1.0,0.7173333333333334,3.9847,3.9847
Central Reserve Police Force - Composite Hospital,23.1387028,77.5354616,4.28,2.22,36,1,4.0,3.97,2,0.6073333333333333,0.7822222222222222,0.75,0.4510000000000001,3.970466666666667,3.970466666666667
Jupiter Hospital,23.2503903,77.422628,4.87,3.21,24,1,2.56,4.9,3,0.7226666666666667,0.5955555555555555,0.5,0.7076666666666667,3.9679666666666664,3.9679666666666664
Shree Shubh Hospital,23.2498466,77.441712,4.95,3.62,31,1,3.39,3.94,4,0.7118333333333333,0.7044444444444444,0.25,0.7838333333333334,3.9437333333333333,3.9437333333333333
T B Hospital,23.2750528,77.3781166,4.51,2.02,45,1,3.39,4.74,4,0.6605,0.922222222222222,0.25,0.46316666666666667,3.933866666666667,3.933866666666667
Aradhana Maternity And Kidney Hospital,23.250594,77.4717195,2.3,4.41,40,1,4.06,4.65,2,0.5578333333333333,0.8444444444444443,0.75,0.4165,3.932533333333333,3.932533333333333
Aggrawal's Bombay Children Hospital,23.245765,77.4002823,3.74,3.69,49,1,4.95,2.47,3,0.5311666666666668,0.9844444444444445,0.5,0.5725,3.9318333333333335,3.9318333333333335
Max Hospital,23.2920061,77.4147566,4.8,4.89,10,0,4.84,2.91,1,0.7515,0.07777777777777777,1.0,0.9468333333333333,3.9196333333333335,3.9196333333333335
Nilay Hospital,23.1911005,77.4503008,3.14,3.22,36,1,3.65,4.8,2,0.584,0.7822222222222222,0.75,0.39200000000000007,3.9177666666666666,3.9177666666666666
Asha Niketan Hospital,23.2102929,77.4396715,4.63,4.91,28,0,3.67,3.27,2,0.6906666666666667,0.35777777777777775,0.75,0.9186666666666667,3.9174333333333333,3.9174333333333333
Venus Hospital and Medical Research Centre-Bhopal,23.2993465,77.403806,2.7,4.79,22,1,4.86,4.45,2,0.6568333333333334,0.5644444444444444,0.75,0.5468333333333334,3.9101333333333335,3.9101333333333335
Swasth Hospital,23.201299,77.4466394,4.84,2.07,35,1,2.39,3.94,2,0.5548333333333333,0.7666666666666666,0.75,0.5311666666666667,3.9041,3.9041
Hind Spine Clinic,23.2104222,77.4315482,4.45,2.31,49,1,2.58,3.88,3,0.528,0.9844444444444445,0.5,0.49566666666666676,3.9040333333333335,3.9040333333333335
"Life Line Hospital, Bhopal",23.1984715,77.4264928,4.03,2.28,45,0,3.85,4.71,2,0.6451666666666667,0.6222222222222221,0.75,0.41416666666666674,3.896166666666667,3.896166666666667
ABM Muntispeciality Hospital,23.2633705,77.3938848,4.88,2.98,33,1,3.09,2.71,2,0.5286666666666666,0.7355555555555555,0.75,0.675,3.8846666666666665,3.8846666666666665
"Shekhar Hospital, Bhopal",23.2016302,77.4263831,4.21,4.54,28,1,2.66,3.87,3,0.6158333333333333,0.6577777777777778,0.5,0.7861666666666667,3.877933333333333,3.877933333333333
Sanjivani Hospital,23.3630531,77.3999805,4.5,4.87,25,1,3.53,3.56,4,0.6931666666666667,0.611111111111111,0.25,0.8888333333333334,3.8772333333333333,3.8772333333333333
CIVIL HOSPITAL,23.2564166,77.4094808,2.9,4.32,36,0,5.0,3.84,1,0.605,0.48222222222222216,1.0,0.513,3.8730666666666664,3.8730666666666664
Roshan Maternity Child Care And General Hospital,23.2527836,77.4390656,4.99,2.94,35,0,2.28,4.36,2,0.6505,0.4666666666666666,0.75,0.6891666666666667,3.8699999999999997,3.8699999999999997
Parul Hospital Pvt Ltd,23.2274392,77.4320886,3.66,3.86,25,1,4.6,4.13,3,0.6729999999999999,0.611111111111111,0.5,0.5833333333333334,3.867833333333333,3.867833333333333
Navodaya Hospital And Research Centre,23.230265,77.436824,4.97,2.07,36,0,4.82,4.75,4,0.813,0.48222222222222216,0.25,0.5549999999999999,3.8601666666666663,3.8601666666666663
G.S.M.Hospital,23.2301825,77.3937517,4.42,4.5,22,0,2.45,4.03,1,0.6403333333333334,0.2644444444444444,1.0,0.8186666666666667,3.8544333333333336,3.8544333333333336
Sant Hirdaram Yoga and Nature cure Hospital,23.266028,77.339174,3.55,2.15,43,0,3.38,4.99,1,0.5793333333333333,0.591111111111111,1.0,0.30666666666666664,3.854333333333333,3.854333333333333
Aastha Hospital,23.2324175,77.3944885,2.08,4.22,46,1,5.0,4.26,3,0.5463333333333333,0.9377777777777778,0.5,0.3476666666666666,3.852133333333333,3.852133333333333
Global Liver and Gastroenterology Centre,23.2140521,77.429118,4.83,2.35,42,0,3.05,3.83,2,0.6006666666666667,0.5755555555555555,0.75,0.5713333333333334,3.8415666666666666,3.8415666666666666
Suditi Hospital - Bhopal,23.2766683,77.3657897,4.58,2.9,38,0,3.36,4.62,3,0.6986666666666667,0.5133333333333333,0.5,0.6080000000000001,3.8404,3.8404
L.G.M. Hospital,23.163029,77.46877,4.34,4.39,11,0,2.66,4.83,1,0.7195,0.09333333333333332,1.0,0.7874999999999999,3.8355,3.8355
Vaishno Hospital bhopal,23.2380758,77.4962629,5.0,3.14,21,1,2.22,3.55,2,0.5766666666666667,0.5488888888888889,0.75,0.7210000000000001,3.8304666666666667,3.8304666666666667
Silver Line Hospital,23.263746,77.393839,3.76,4.4,29,1,2.32,2.98,1,0.4446666666666666,0.6733333333333333,1.0,0.6826666666666668,3.8268,3.8268
Manisha Hospital,23.213357,77.3921666,3.92,3.9,31,0,3.34,3.79,1,0.5873333333333333,0.4044444444444444,1.0,0.637,3.825433333333333,3.825433333333333
V Care Children Hospital,23.1720945,77.4233654,4.79,3.01,35,1,4.3,2.95,4,0.6243333333333333,0.7666666666666666,0.25,0.663,3.8229,3.8229
Darbari Hospital,23.2705381,77.4015169,3.21,2.69,49,1,3.74,4.85,4,0.5766666666666667,0.9844444444444445,0.25,0.32533333333333336,3.8134333333333332,3.8134333333333332
Peoples Hospital,23.2988834,77.4251068,2.69,3.92,30,1,2.31,4.72,1,0.4691666666666666,0.6888888888888889,1.0,0.41450000000000004,3.794766666666667,3.794766666666667
Bhopal Memorial & Gas Rahat Hospital,23.2668298,77.4200427,3.71,2.78,18,1,4.87,4.01,2,0.6308333333333334,0.5022222222222221,0.75,0.4305,3.7895666666666665,3.7895666666666665
Shivalaya Hospital,23.1587783,77.428613,3.95,4.87,31,1,2.52,3.27,3,0.5326666666666666,0.7044444444444444,0.5,0.788,3.788733333333333,3.788733333333333
Nagpur Hospital,23.25137,77.503047,4.58,4.09,9,1,4.39,4.88,5,0.8528333333333333,0.3622222222222222,0.0,0.7865,3.7868666666666666,3.7868666666666666
Central Hospital and Research Center,23.263933,77.393792,4.09,3.75,25,1,2.38,3.71,2,0.5276666666666666,0.611111111111111,0.75,0.6456666666666667,3.7810333333333332,3.7810333333333332
"Shivam Hospital, Bhopal",23.2353103,77.441023,3.68,3.82,27,1,4.02,4.51,4,0.6726666666666665,0.6422222222222222,0.25,0.581,3.7774666666666663,3.7774666666666663
Apex Hospital,23.2698098,77.4013451,3.73,4.93,27,1,4.48,2.48,3,0.5616666666666666,0.6422222222222222,0.5,0.7566666666666666,3.7761666666666667,3.7761666666666667
Mata Mandir Netra Sewa Kendra,23.2242238,77.4019808,3.77,4.65,34,0,3.33,4.35,3,0.6626666666666666,0.45111111111111113,0.5,0.722,3.7739333333333334,3.7739333333333334
"Adarsh Hospital, Bhopal",23.2678041,77.3950513,4.92,4.65,6,1,4.63,3.11,4,0.7595,0.31555555555555553,0.25,0.9328333333333334,3.7682666666666664,3.7682666666666664
Agrawal Hospital,23.2156753,77.4393775,4.19,2.92,35,1,4.01,3.01,3,0.5365,0.7666666666666666,0.5,0.5395000000000001,3.7666,3.7666
Mansi Hospital,23.257099,77.418607,4.91,3.18,34,1,4.51,2.9,5,0.6558333333333334,0.7511111111111111,0.0,0.7105000000000001,3.7602333333333338,3.7602333333333338
Gour Hospital And Maternity Home,23.2548783,77.4043921,3.61,4.34,26,1,3.96,3.44,3,0.5795,0.6266666666666667,0.5,0.6461666666666667,3.7580999999999998,3.7580999999999998
Cancer Hospital,23.27308,77.380577,4.67,2.06,21,1,3.0,4.65,3,0.6461666666666667,0.5488888888888889,0.5,0.49850000000000005,3.755466666666666,3.755466666666666
Gas Rahat Hospital,23.253862,77.4311342,4.81,3.42,45,1,3.05,2.17,4,0.4858333333333333,0.922222222222222,0.25,0.7281666666666666,3.7513666666666663,3.7513666666666663
Siddharth Homeopathic Clinic,23.1806052,77.4568483,3.99,4.55,23,1,2.46,2.28,1,0.41833333333333333,0.58,1.0,0.7473333333333334,3.7367,3.7367
Vijaya Maternity and Nursing Home,23.2377429,77.437811,4.38,3.09,49,0,3.97,3.57,4,0.6205,0.6844444444444444,0.25,0.5998333333333333,3.7365333333333335,3.7365333333333335
Jindal Maternity Hospital,23.230583,77.3932195,3.78,5.0,10,1,3.67,3.19,2,0.588,0.37777777777777777,0.75,0.7763333333333333,3.735733333333333,3.735733333333333
Rajni Health Care hospital,23.2682641,77.4681819,4.82,3.8,47,0,2.89,3.92,5,0.6703333333333334,0.6533333333333333,0.0,0.7870000000000001,3.7316000000000003,3.7316000000000003
Al - Rasheed Hospital,23.2617624,77.3977843,3.2,2.76,24,1,4.08,3.73,1,0.48966666666666664,0.5955555555555555,1.0,0.334,3.7313666666666667,3.7313666666666667
Civil Dispensary 1100 Quarter,23.2089715,77.4285038,4.86,3.85,5,1,2.24,3.75,2,0.6171666666666668,0.3,0.75,0.8018333333333334,3.7288,3.7288
Jaimini Hospital,23.253402,77.413919,4.96,2.66,22,1,4.86,2.22,3,0.5910000000000001,0.5644444444444444,0.5,0.6416666666666668,3.7273333333333336,3.7273333333333336
Mohit Day Care Hospital,23.280336,77.465615,3.57,3.96,42,1,4.89,3.23,5,0.5968333333333332,0.8755555555555554,0.0,0.5818333333333333,3.7264666666666666,3.7264666666666666
Jainmshree Hospital,23.2120918,77.4309133,2.06,3.9,35,1,4.84,4.66,3,0.5573333333333333,0.7666666666666666,0.5,0.296,3.7248,3.7248
Kiishnani Hospital,23.2720075,77.3452807,3.86,3.05,19,1,3.16,4.15,2,0.5618333333333334,0.5177777777777778,0.75,0.4985,3.7181333333333333,3.7181333333333333
Dolphin Children Hospital,23.261919,77.46257,3.65,4.57,48,1,3.77,2.08,4,0.44699999999999995,0.9688888888888889,0.25,0.6880000000000001,3.7160666666666664,3.7160666666666664
R.A Stone and Surgical Care,23.2332387,77.3952263,4.91,4.16,42,1,3.13,2.06,5,0.5288333333333334,0.8755555555555554,0.0,0.8575000000000002,3.7071666666666667,3.7071666666666667
Sparsh Med care Hospital,23.282081,77.403413,4.64,2.32,35,0,4.99,2.49,2,0.5723333333333334,0.4666666666666666,0.75,0.5319999999999999,3.7056,3.7056
raka medical,23.2183639,77.428498,3.96,4.07,26,0,3.03,4.87,3,0.6878333333333333,0.32666666666666666,0.5,0.6698333333333334,3.7026999999999997,3.7026999999999997
"Vardaan Hospital, Bhopal",23.2521256,77.4149495,2.09,4.31,32,1,2.9,4.16,1,0.402,0.72,1.0,0.36299999999999993,3.7019,3.7019
Mount Hospital Bhopal,23.194218,77.473807,3.62,4.7,36,1,2.93,4.15,5,0.601,0.7822222222222222,0.0,0.7020000000000001,3.6987666666666668,3.6987666666666668
Sharda Hospital and Diagnostic Center,23.221521,77.3959123,3.38,3.3,32,1,3.68,3.92,3,0.53,0.72,0.5,0.44799999999999995,3.6944,3.6944
Ojas Hospital,23.195543,77.4657937,4.49,4.25,26,1,2.87,3.19,4,0.58,0.6266666666666667,0.25,0.794,3.6907,3.6907
Janak Clinic and Care,23.268336,77.4675993,3.66,3.04,34,0,4.22,3.87,2,0.5806666666666667,0.45111111111111113,0.75,0.46033333333333337,3.6849333333333334,3.6849333333333334
Shubham Hospital Fracture Accident Care,23.2624533,77.3939529,3.81,2.63,44,0,3.29,3.81,2,0.5096666666666667,0.6066666666666667,0.75,0.42633333333333334,3.6849,3.6849
Maxcare Hospital,23.258056,77.3957463,4.72,3.84,24,0,2.66,3.34,2,0.5873333333333333,0.2955555555555555,0.75,0.7746666666666666,3.6725666666666665,3.6725666666666665
"Niramaya Hospital, Bhopal",23.2112407,77.432908,3.83,4.45,20,1,4.87,2.3,3,0.5573333333333335,0.5333333333333333,0.5,0.7030000000000001,3.6719,3.6719
Shukla Hospital and Maternity Home,23.2198621,77.3957902,3.86,4.79,36,1,4.66,2.37,5,0.5708333333333334,0.7822222222222222,0.0,0.7595000000000001,3.670766666666667,3.670766666666667
Hafeez Maternity Home and Eye Hospital,23.2481629,77.413765,4.59,4.59,18,0,3.24,2.25,1,0.5393333333333333,0.2022222222222222,1.0,0.8633333333333333,3.6696666666666666,3.6696666666666666
Dr Kamlesh Talesara,23.199468,77.414268,3.65,4.09,48,1,3.31,3.2,5,0.5043333333333333,0.9688888888888889,0.0,0.616,3.6679666666666666,3.6679666666666666
"Sanjeevani Hospital, Bhopal",23.2641502,77.3937863,4.53,4.9,23,0,2.86,3.41,3,0.6385000000000001,0.27999999999999997,0.5,0.8988333333333334,3.6624,3.6624
Apple hospital,23.2511711,77.4150939,2.56,3.14,43,1,3.16,3.08,1,0.3076666666666667,0.891111111111111,1.0,0.2736666666666667,3.6619333333333333,3.6619333333333333
G.S.M. Hospital,23.2337404,77.3959966,4.55,4.56,17,1,2.86,4.11,5,0.6938333333333334,0.48666666666666664,0.0,0.8514999999999999,3.6612,3.6612
"Nav Jeevan Hospital, Bhopal",23.1948024,77.4704428,3.94,2.67,40,1,2.18,2.96,2,0.36783333333333335,0.8444444444444443,0.75,0.45616666666666666,3.6594333333333333,3.6594333333333333
Lahoti Hospital ,23.1998518,77.429428,4.68,3.27,34,0,4.18,4.16,5,0.7374999999999998,0.45111111111111113,0.0,0.6818333333333333,3.6491333333333333,3.6491333333333333
Devmata Hospital,23.2684238,77.4731988,4.87,2.92,22,0,4.14,4.33,4,0.7565,0.2644444444444444,0.25,0.6641666666666667,3.644833333333333,3.644833333333333
Bhabha General Hospital,23.173442,77.471741,3.62,4.25,24,1,3.21,4.08,4,0.5901666666666666,0.5955555555555555,0.25,0.6345000000000001,3.6347666666666667,3.6347666666666667
All Care Hospital,23.253359,77.4264,3.31,3.55,43,0,4.84,3.29,3,0.5486666666666666,0.591111111111111,0.5,0.4726666666666667,3.6331333333333333,3.6331333333333333
B.S.Sacklecha Hospital And Trauma Centre,23.172951,77.460498,3.92,3.39,23,0,2.33,4.94,2,0.6095,0.27999999999999997,0.75,0.5605,3.6299,3.6299
Bhopal Memorial Hospital and Research Center,23.3003492,77.4166846,2.49,4.39,46,1,3.23,2.44,2,0.30266666666666664,0.9377777777777778,0.75,0.4483333333333333,3.6293333333333333,3.6293333333333333
GOVERMENT HOMEOPATHIC MEDICAL COLLEGE AND HOSPITAL,23.2037556,77.4091003,3.95,3.28,44,1,3.28,2.7,4,0.4468333333333333,0.9066666666666667,0.25,0.5495,3.6276,3.6276
Asian Globus Liver And Gastroenterology Centre,23.2147497,77.4269749,4.99,2.01,19,1,2.82,2.87,2,0.491,0.5177777777777778,0.75,0.5496666666666666,3.6272333333333333,3.6272333333333333
Batra Hospital,23.2337463,77.4347058,3.29,2.82,16,1,2.46,4.55,1,0.47716666666666663,0.4711111111111111,1.0,0.3595,3.626933333333333,3.626933333333333
Ajwani Eye Tech Centre,23.2137751,77.4274743,3.97,4.89,40,0,2.84,2.71,3,0.5013333333333333,0.5444444444444444,0.5,0.7946666666666667,3.623733333333333,3.623733333333333
Pranjal Hospital and Child Care Center,23.254938,77.4302284,4.11,4.43,21,0,3.2,3.35,2,0.5826666666666667,0.24888888888888888,0.75,0.7513333333333334,3.623566666666667,3.623566666666667
Jeevan Shree Hospital,23.302911,77.408823,2.8,4.46,36,1,4.11,3.55,4,0.512,0.7822222222222222,0.25,0.5156666666666666,3.6218666666666666,3.6218666666666666
New Bhopal Hospital and Research Foundation,23.2283782,77.4364391,4.74,2.33,27,0,3.29,2.72,1,0.49416666666666675,0.3422222222222222,1.0,0.5518333333333334,3.613466666666667,3.613466666666667
Central Hospital,23.2817728,77.3592499,4.15,2.6,22,1,2.24,2.95,1,0.3918333333333334,0.5644444444444444,1.0,0.4841666666666668,3.6063333333333336,3.6063333333333336
Manahi Hospital,23.20852,77.438402,2.9,3.96,40,0,3.04,4.05,2,0.4773333333333333,0.5444444444444444,0.75,0.45899999999999996,3.5995333333333335,3.5995333333333335
Colony Care Multi-Speciality Hospital,23.2149023,77.433355,2.97,3.55,23,1,2.61,4.37,2,0.4683333333333333,0.58,0.75,0.4103333333333334,3.5980999999999996,3.5980999999999996
Siddhanta Hospital,23.171339,77.425342,4.64,4.46,33,0,4.29,2.93,5,0.6766666666666665,0.43555555555555553,0.0,0.853,3.5975666666666664,3.5975666666666664
RKDF Medical College Hospital & Research Centre,23.176076,77.478925,4.61,3.74,8,0,3.54,4.49,3,0.7431666666666668,0.04666666666666666,0.5,0.7395000000000002,3.5966,3.5966
"All India Institute of Medical Sciences (AIIMS), Bhopal",23.2093426,77.4584547,3.36,4.71,24,1,2.15,2.31,1,0.33516666666666667,0.5955555555555555,1.0,0.6558333333333334,3.5961666666666665,3.5961666666666665
New star hospital,23.278182,77.40302,4.8,4.26,6,0,3.81,3.72,3,0.7323333333333333,0.015555555555555555,0.5,0.8523333333333333,3.5908666666666664,3.5908666666666664
Superintendent Office Sultania Zanana Hospital,23.2552746,77.4081332,3.46,3.26,12,1,4.93,3.84,3,0.6126666666666666,0.40888888888888886,0.5,0.45666666666666667,3.5876666666666663,3.5876666666666663
Chirayu Health & Medicare Pvt. Ltd.,23.258135,77.397161,4.16,2.38,23,0,4.87,4.13,3,0.6753333333333333,0.27999999999999997,0.5,0.45300000000000007,3.5839,3.5839
Hajela Hospital,23.2249287,77.3934285,3.61,2.89,17,1,4.82,4.24,4,0.6443333333333333,0.48666666666666664,0.25,0.4286666666666667,3.5726,3.5726
Peoples General Hospital,23.2402937,77.4055132,4.54,4.7,41,0,3.52,2.6,5,0.5926666666666668,0.5599999999999999,0.0,0.8706666666666667,3.5702000000000003,3.5702000000000003
Care Hospital,23.6715372,77.2258103,2.47,4.03,26,0,4.01,4.84,2,0.5743333333333334,0.32666666666666666,0.75,0.3906666666666668,3.5612,3.5612
Peoples College Of Paramedical Science & Research Center,23.301544,77.419681,5.0,2.5,16,0,3.68,2.39,1,0.526,0.1711111111111111,1.0,0.625,3.5548333333333337,3.5548333333333337
"Charak Hospital/A Unit Of Mrityunjay Health Care Pvt Ltd,",23.251491,77.4151021,3.19,2.8,38,1,2.68,2.37,1,0.26116666666666666,0.8133333333333332,1.0,0.33816666666666667,3.5532000000000004,3.5532000000000004
Sks Hospital Bhopal,23.131535,77.4084467,2.92,4.02,16,1,2.36,4.45,2,0.47733333333333333,0.4711111111111111,0.75,0.47166666666666657,3.5483333333333333,3.5483333333333333
Metro Multispeciality & Fracture Hospital,23.238589,77.4959018,3.89,4.85,42,0,4.61,2.5,5,0.587,0.5755555555555555,0.0,0.774,3.5443666666666664,3.5443666666666664
MP Hospital Bhopal,23.2514169,77.4599857,3.42,2.74,21,1,3.94,3.22,2,0.45399999999999996,0.5488888888888889,0.75,0.3713333333333334,3.5415666666666663,3.5415666666666663
SK dubey hospital,23.2095734,77.4357149,4.96,2.23,15,0,4.85,2.59,2,0.6058333333333332,0.15555555555555553,0.75,0.5771666666666667,3.5360666666666667,3.5360666666666667
Devi Rajeshwari Hospital,23.251641,77.458523,2.47,2.63,36,1,3.83,4.38,3,0.44633333333333336,0.7822222222222222,0.5,0.1806666666666667,3.5353666666666665,3.5353666666666665
Rajdeep Hospital,23.2720029,77.3424774,4.05,4.59,10,1,2.15,4.28,4,0.6066666666666667,0.37777777777777777,0.25,0.7643333333333333,3.5351333333333335,3.5351333333333335
Hardev Hospital,23.272502,77.344475,3.67,3.4,41,0,3.5,4.0,4,0.5648333333333333,0.5599999999999999,0.25,0.5161666666666667,3.5345999999999997,3.5345999999999997
Mona Hospital,23.253224,77.433678,4.59,4.12,35,0,4.65,2.46,5,0.6308333333333334,0.4666666666666666,0.0,0.7928333333333333,3.5341,3.5341
Anand Joint Replacement Centre,23.2649868,77.4656512,3.37,3.01,8,0,4.73,4.99,2,0.6913333333333334,0.04666666666666666,0.75,0.4026666666666667,3.5303,3.5303
Parulkar Hospitals,23.220139,77.430376,3.35,3.63,19,1,2.97,3.33,2,0.4366666666666667,0.5177777777777778,0.75,0.492,3.5284333333333335,3.5284333333333335
Sujyoti Hospital and Maternity Home,23.1916178,77.4365044,2.1,3.2,49,1,3.52,2.06,1,0.17900000000000005,0.9844444444444445,1.0,0.1983333333333334,3.5163333333333333,3.5163333333333333
Prakash Eye Care and Laser Centre,23.2288798,77.4356157,2.66,2.23,35,1,4.14,4.9,4,0.5211666666666668,0.7666666666666666,0.25,0.15550000000000003,3.5159,3.5159
Orthocare Hospital,23.1709998,77.4281443,3.83,3.33,49,0,4.03,3.44,5,0.5593333333333333,0.6844444444444444,0.0,0.535,3.5128333333333335,3.5128333333333335
L.B.S Hospital,23.2649458,77.3937383,2.83,4.59,5,0,3.42,4.79,1,0.6,0.0,1.0,0.5406666666666666,3.5122,3.5122
Central Hospital & Research Center,23.2646039,77.3941763,2.84,2.62,50,1,2.95,2.41,2,0.23333333333333336,1.0,0.75,0.247,3.5116,3.5116
Anantshree Multispeciality Hospital,23.2512606,77.459553,2.24,3.0,49,1,2.76,4.73,4,0.40166666666666667,0.9844444444444445,0.25,0.19400000000000003,3.5115333333333334,3.5115333333333334
Ntr Hospital and Research Centre,23.2597415,77.4056527,2.51,3.38,49,1,3.69,4.14,5,0.4551666666666666,0.9844444444444445,0.0,0.3005,3.511233333333333,3.511233333333333
LN Medical Collage and J.K Hospital,23.177274,77.428247,3.43,2.58,45,0,4.23,3.31,3,0.47550000000000003,0.6222222222222221,0.5,0.34916666666666674,3.509666666666667,3.509666666666667
Sahara Fracture and General Hospital,23.1956985,77.4483964,4.33,2.84,19,1,2.94,3.85,4,0.5614999999999999,0.5177777777777778,0.25,0.5531666666666668,3.509033333333333,3.509033333333333
Saluja Hospital,23.268316,77.401097,2.18,3.81,46,1,3.15,2.6,2,0.2481666666666667,0.9377777777777778,0.75,0.30450000000000005,3.5044333333333335,3.5044333333333335
Capital Hospital,23.3029552,77.4061754,3.37,4.3,22,0,2.25,4.3,2,0.5215000000000001,0.2644444444444444,0.75,0.5961666666666667,3.4969333333333337,3.4969333333333337
Sankalp Netralya Hospital,23.2302816,77.4364857,2.79,3.53,49,0,3.67,3.5,3,0.43000000000000005,0.6844444444444444,0.5,0.3743333333333333,3.495633333333333,3.495633333333333
"Nahar Nursing Home, Bhopal",23.2373436,77.4018855,2.87,4.21,43,1,2.94,2.28,3,0.30266666666666664,0.891111111111111,0.5,0.49100000000000005,3.4946333333333333,3.4946333333333333
Mishra Hospital,23.165835,77.415595,4.29,3.42,45,0,3.58,2.4,4,0.4835,0.6222222222222221,0.25,0.6328333333333334,3.4942666666666664,3.4942666666666664
Noble Multispeciality Hospital,23.1614005,77.4705541,3.14,2.68,50,0,4.62,2.11,2,0.3526666666666667,0.7,0.75,0.31100000000000005,3.4848,3.4848
Shree Balaji Multispecialty Hospital,23.2663724,77.4701843,2.35,4.95,40,1,3.52,3.74,5,0.46366666666666667,0.8444444444444443,0.0,0.5066666666666667,3.4808333333333334,3.4808333333333334
Bhambhani Hospital,23.2697538,77.3367957,3.59,4.54,22,0,3.59,3.52,3,0.5705,0.2644444444444444,0.5,0.6725,3.4808333333333334,3.4808333333333334
"Meenakshi Hospital, Bhopal",23.2133755,77.4299254,3.63,2.03,39,1,2.32,2.72,2,0.285,0.8288888888888888,0.75,0.3033333333333333,3.4776666666666665,3.4776666666666665
Saarthi Hospital (Maternity and Urological Centre),23.2029589,77.4457088,2.79,4.19,40,0,4.3,3.87,4,0.542,0.5444444444444444,0.25,0.47333333333333344,3.475833333333333,3.475833333333333
Jai Multispeciality Clinic,23.2533157,77.4719325,3.81,3.11,25,0,3.99,3.01,2,0.5003333333333333,0.31111111111111106,0.75,0.49833333333333335,3.470833333333333,3.470833333333333
Physiotherapy & Ayurveda,23.1886998,77.4319555,2.67,4.72,32,1,3.36,4.08,5,0.5128333333333333,0.72,0.0,0.5308333333333333,3.4684999999999997,3.4684999999999997
Muskan Maternity and General Hospital,23.2728295,77.4650335,4.16,3.23,23,1,2.93,3.16,4,0.4915,0.58,0.25,0.5805,3.4589,3.4589
New Apex Hospital,23.277956,77.403085,2.22,4.1,33,0,4.13,3.76,2,0.44866666666666655,0.43555555555555553,0.75,0.35533333333333333,3.4437666666666664,3.4437666666666664
Astha Hospital,23.21118,77.432444,2.39,3.89,41,1,3.19,4.4,5,0.45933333333333337,0.8599999999999999,0.0,0.35500000000000004,3.4405,3.4405
Shubh Hospital,23.2655073,77.4726603,2.57,3.22,7,1,4.96,3.11,1,0.4358333333333333,0.3311111111111111,1.0,0.2875,3.4383333333333335,3.4383333333333335
career hospital,23.2314706,77.4504262,4.02,2.96,5,1,3.88,2.71,2,0.4799999999999999,0.3,0.75,0.5143333333333333,3.4368,3.4368
Aadhar Hospital,23.302993,77.408562,2.61,4.85,48,0,2.45,2.38,2,0.2816666666666666,0.6688888888888889,0.75,0.5393333333333332,3.4234666666666667,3.4234666666666667
Shri Satya Sai Hospital,23.202132,77.446307,4.19,4.31,10,1,3.92,3.1,5,0.609,0.37777777777777777,0.0,0.748,3.4212333333333333,3.4212333333333333
Sahaj Hospital,23.261772,77.428413,3.79,4.26,7,0,4.32,3.72,3,0.6485000000000001,0.03111111111111111,0.5,0.6671666666666667,3.4212333333333333,3.4212333333333333
OM Hospital,23.2507344,77.430654,3.27,4.04,15,0,3.71,4.43,3,0.6071666666666666,0.15555555555555553,0.5,0.5388333333333334,3.414066666666667,3.414066666666667
Akshaya Hospital,23.2174908,77.4236557,3.92,2.58,33,1,3.27,3.42,5,0.4796666666666667,0.7355555555555555,0.0,0.43900000000000006,3.4028666666666667,3.4028666666666667
25Th Battalion Hospital,23.22181,77.380268,3.63,2.08,24,1,2.25,4.13,3,0.4238333333333333,0.5955555555555555,0.5,0.31083333333333335,3.4006666666666665,3.4006666666666665
M J Hospital,23.250024,77.4881688,4.19,2.82,15,1,4.85,2.38,4,0.5245,0.4555555555555555,0.25,0.5245000000000001,3.3982666666666663,3.3982666666666663
Balaji Fracture & General Hospital,23.250344,77.471633,2.71,2.76,25,1,2.16,4.95,3,0.4265,0.611111111111111,0.5,0.24416666666666664,3.396333333333333,3.396333333333333
Mahaveer Institute of Medical Sciences and Research,23.3123573,77.365381,2.9,4.01,35,0,3.97,2.39,2,0.37583333333333335,0.4666666666666666,0.75,0.4665,3.3912,3.3912
Malti Hospital & Test Tube Baby Centre,23.209923,77.431569,4.74,3.29,7,1,2.65,3.93,5,0.6205,0.3311111111111111,0.0,0.6958333333333334,3.3878333333333335,3.3878333333333335
MKM Stone & Urology Hospital,23.2207305,77.4306234,3.2,3.64,19,0,3.78,5.0,4,0.6406666666666667,0.21777777777777776,0.25,0.4660000000000001,3.3766333333333334,3.3766333333333334
Care Infinity Hospital,23.2737457,77.3668008,3.27,2.23,40,0,4.28,4.03,4,0.5146666666666667,0.5444444444444444,0.25,0.26733333333333337,3.3730333333333333,3.3730333333333333
HAKIM SYED ZIAUL HASAN GOVERMENT UNANI MEDICAL COLLEGE AND HOSPITAL,23.2045252,77.4093707,2.6,3.66,22,0,4.54,4.35,3,0.5573333333333333,0.2644444444444444,0.5,0.35900000000000004,3.3670333333333335,3.3670333333333335
Swastik Hospital,23.252268,77.496581,3.75,3.39,22,1,4.12,3.08,5,0.523,0.5644444444444444,0.0,0.5293333333333334,3.3666333333333336,3.3666333333333336
Sudama Hospital,23.3664024,77.401389,4.11,3.19,47,0,2.05,2.85,4,0.394,0.6533333333333333,0.25,0.5653333333333335,3.3631,3.3631
Vidhata Multi Speciality Hospital,23.304155,77.436358,4.26,2.65,46,0,2.39,3.65,5,0.48716666666666664,0.6377777777777778,0.0,0.5118333333333334,3.362633333333333,3.362633333333333
Hayat Hospital,23.2697662,77.4074972,2.21,3.51,44,1,2.23,4.73,5,0.38833333333333336,0.9066666666666667,0.0,0.26499999999999996,3.342,3.342
Shri Maya Maternity and General Hospital,23.1945312,77.4731706,3.01,4.7,33,0,3.14,3.51,4,0.47983333333333333,0.43555555555555553,0.25,0.5901666666666667,3.3359666666666667,3.3359666666666667
Citi Hospital,23.2304819,77.4360924,4.19,2.31,29,1,2.34,2.16,3,0.3096666666666667,0.6733333333333333,0.5,0.44800000000000006,3.3289,3.3289
Anupam Hospital,23.1724664,77.4170971,2.08,2.79,36,1,3.09,2.46,1,0.16749999999999998,0.7822222222222222,1.0,0.1331666666666667,3.3278666666666665,3.3278666666666665
Jayshree Hospital,23.2528588,77.3988064,2.29,4.58,34,1,2.88,2.49,3,0.2705,0.7511111111111111,0.5,0.4401666666666667,3.3261333333333334,3.3261333333333334
Manya Hospital,23.2676797,77.3947884,3.26,3.95,48,0,2.76,3.44,5,0.4391666666666666,0.6688888888888889,0.0,0.5235000000000001,3.3174666666666663,3.3174666666666663
Bhopal Fracture Hospital ,23.2126452,77.4387892,2.26,2.83,50,1,4.73,2.13,4,0.26683333333333337,1.0,0.25,0.17216666666666663,3.3144,3.3144
"Vatsalya Hospital, Bhopal",23.2339407,77.4400197,3.75,3.16,34,0,3.83,3.61,5,0.5451666666666666,0.45111111111111113,0.0,0.49483333333333335,3.304533333333333,3.304533333333333
Dr Rakesh Singh Jagat,23.253215,77.4684872,2.82,3.29,10,1,3.58,4.71,4,0.5365,0.37777777777777777,0.25,0.3438333333333333,3.303733333333333,3.303733333333333
Promise Children & general Hospital,23.2926896,77.4037377,4.02,2.38,16,0,2.93,3.55,2,0.47166666666666657,0.1711111111111111,0.75,0.4273333333333333,3.301533333333333,3.301533333333333
Jaanki Hospital Bhopal,23.182475,77.438149,2.79,3.64,39,1,3.27,2.4,4,0.29883333333333334,0.8288888888888888,0.25,0.3908333333333334,3.2996666666666665,3.2996666666666665
"Mayo Hospital, Bhopal",23.2622106,77.3890002,3.14,2.99,18,1,4.92,3.63,5,0.5401666666666667,0.5022222222222221,0.0,0.3575000000000001,3.2941666666666665,3.2941666666666665
Indira Gandhi Hospital,23.2610396,77.4010633,4.91,3.06,42,0,2.11,2.35,5,0.43483333333333335,0.5755555555555555,0.0,0.6925000000000001,3.291666666666667,3.291666666666667
Sarvottam Hospital,23.277597,77.372502,2.64,2.34,45,0,2.38,4.49,3,0.366,0.6222222222222221,0.5,0.16833333333333333,3.2911666666666664,3.2911666666666664
bansal hospital,23.213384,77.396377,4.3,3.24,9,1,3.06,2.82,4,0.48299999999999993,0.3622222222222222,0.25,0.6076666666666667,3.290966666666667,3.290966666666667
Jashdeep Hospital,23.2338401,77.3961577,2.8,4.62,31,1,3.12,2.24,4,0.323,0.7044444444444444,0.25,0.5396666666666666,3.287233333333333,3.287233333333333
Tripti Hospital,23.273679,77.370737,2.5,4.86,32,0,3.93,2.64,3,0.394,0.42,0.5,0.5206666666666667,3.2872000000000003,3.2872000000000003
Krishna Hospital,23.186688,77.435336,2.21,4.55,30,1,3.68,2.14,3,0.278,0.6888888888888889,0.5,0.421,3.2849666666666666,3.2849666666666666
ECHS Polyclinic,23.276895,77.33363,3.33,3.75,34,0,3.89,2.84,4,0.45266666666666666,0.45111111111111113,0.25,0.5063333333333334,3.2817333333333334,3.2817333333333334
"Rainbow Children Hospital, Bhopal",23.2356788,77.3983128,2.27,3.62,17,1,4.76,3.06,3,0.40249999999999997,0.48666666666666664,0.5,0.29250000000000004,3.2815,3.2815
Nandan Hospital,23.2500507,77.4169728,2.21,3.79,24,1,2.24,4.15,3,0.34500000000000003,0.5955555555555555,0.5,0.307,3.2812666666666668,3.2812666666666668
Anushree Hospital,23.2125817,77.4361414,2.68,2.07,22,0,2.94,4.49,1,0.39449999999999996,0.2644444444444444,1.0,0.13516666666666668,3.2806333333333333,3.2806333333333333
Civil Hospital,23.2721125,77.340247,3.92,3.26,19,0,4.65,2.2,3,0.4836666666666667,0.21777777777777776,0.5,0.541,3.2761333333333336,3.2761333333333336
Paliwal Hospital Pvt. Ltd.,23.2303599,77.4440525,3.67,2.98,6,0,4.75,4.49,4,0.6761666666666666,0.015555555555555555,0.25,0.4531666666666667,3.2743666666666664,3.2743666666666664
"Smile Spectrum : Dental, Hair And Aestheic clinic",23.2682177,77.4681117,2.4,2.36,30,0,4.36,3.78,2,0.39999999999999997,0.3888888888888889,0.75,0.1273333333333333,3.2673666666666668,3.2673666666666668
Paras Hospital,23.2632152,77.39392,2.66,4.96,33,0,3.2,3.34,4,0.43900000000000006,0.43555555555555553,0.25,0.5650000000000001,3.2671666666666663,3.2671666666666663
Bhopal Care Hospital,23.2627832,77.3939585,2.02,3.64,42,0,2.97,2.58,1,0.20700000000000002,0.5755555555555555,1.0,0.24966666666666673,3.2670666666666666,3.2670666666666666
Kid Kare,23.2676723,77.389707,2.66,4.13,21,1,2.09,4.16,4,0.4055,0.5488888888888889,0.25,0.44050000000000006,3.2645666666666666,3.2645666666666666
Mehko Hospital,23.251139,77.41259,4.42,4.3,10,0,2.31,4.25,5,0.643,0.07777777777777777,0.0,0.7886666666666666,3.2594333333333334,3.2594333333333334
Jamna Hospital,23.252763,77.486122,2.36,2.75,44,1,4.07,2.54,4,0.2715,0.9066666666666667,0.25,0.1785,3.2533000000000003,3.2533000000000003
"Khan Shakir ali khan aspataal, gas rahat, bhopal",23.2617176,77.4104527,2.66,3.91,16,0,3.93,4.91,4,0.5921666666666667,0.1711111111111111,0.25,0.4075000000000001,3.251333333333333,3.251333333333333
Divya Hospital,23.163756,77.41431,4.62,2.73,14,0,2.23,4.87,5,0.6445,0.13999999999999999,0.0,0.5898333333333334,3.2487,3.2487
Narayan Shri Homeopathic Hospital,23.264439,77.419474,3.51,2.15,37,0,4.97,2.67,4,0.4486666666666666,0.49777777777777776,0.25,0.2993333333333333,3.2486333333333333,3.2486333333333333
Ubbuntu Heart Hospital,23.1722091,77.4590072,2.6,2.32,20,1,2.87,4.39,3,0.38299999999999995,0.5333333333333333,0.5,0.158,3.2469,3.2469
Global Hospital,23.216619,77.424238,3.14,2.66,14,1,3.74,2.41,2,0.32300000000000006,0.43999999999999995,0.75,0.30800000000000005,3.2443999999999997,3.2443999999999997
National Hospital For Heart and Critical Care,23.2169754,77.4360666,2.94,2.54,35,1,2.34,4.33,5,0.3923333333333333,0.7666666666666666,0.0,0.25333333333333335,3.2394999999999996,3.2394999999999996
Bhopal City Hospital,23.1623654,77.4693157,3.46,3.43,9,1,2.69,4.59,5,0.5468333333333333,0.3622222222222222,0.0,0.4821666666666667,3.2365666666666666,3.2365666666666666
Jeewanshree Hospital,23.303004,77.408962,2.22,4.24,32,0,2.99,4.6,4,0.46366666666666667,0.42,0.25,0.3763333333333334,3.2359,3.2359
"Krishna Hospital, Bhopal",23.2523431,77.4155004,3.11,4.36,10,1,3.3,3.12,4,0.44616666666666666,0.37777777777777777,0.25,0.5575,3.232333333333333,3.232333333333333
Malti Hospital,23.2070006,77.4342786,2.28,4.39,20,0,3.79,3.26,2,0.39749999999999996,0.2333333333333333,0.75,0.4098333333333332,3.2317,3.2317
Shree Vinayak Hospital,23.1847754,77.4201867,2.0,2.25,41,1,2.16,2.6,1,0.0831666666666667,0.8599999999999999,1.0,0.0375,3.231,3.231
Dewani Hospital And Research Centre,23.210445,77.4315892,2.95,4.94,20,1,2.46,2.65,4,0.35350000000000004,0.5333333333333333,0.25,0.6151666666666668,3.2273,3.2273
Hi-Tech Eye Care and Laser Center,23.2616106,77.3938631,2.14,4.16,25,1,3.05,3.71,4,0.36533333333333334,0.611111111111111,0.25,0.34966666666666674,3.2237333333333336,3.2237333333333336
Ankur Maternity And Nursing Home,23.2711503,77.3887213,3.53,4.78,12,0,4.29,2.0,3,0.4701666666666667,0.10888888888888888,0.5,0.6975,3.221166666666667,3.221166666666667
Madhavbaug cardiac clinic,23.276649,77.37255,2.69,4.67,32,0,4.24,3.33,5,0.49633333333333335,0.42,0.0,0.527,3.2176,3.2176
KAILASH NATH KATJU,23.2339794,77.3973834,3.3,4.03,16,0,4.26,3.97,5,0.6008333333333333,0.1711111111111111,0.0,0.5428333333333334,3.1924333333333337,3.1924333333333337
Dulaar Children Hospital,23.153644,77.474917,3.59,2.51,5,0,4.95,2.11,1,0.41866666666666663,0.0,1.0,0.36799999999999994,3.1883999999999997,3.1883999999999997
Unani Hospital,23.2521287,77.4041094,3.01,3.37,38,0,3.31,2.31,3,0.30466666666666664,0.5133333333333333,0.5,0.39066666666666666,3.1841999999999997,3.1841999999999997
Shalya Joint Care Hospital,23.1978545,77.4301604,2.8,3.48,8,1,3.38,3.32,3,0.3913333333333333,0.3466666666666667,0.5,0.36866666666666664,3.1826,3.1826
Ajwani Eye Hospital,23.2696891,77.4013142,2.14,4.64,26,0,4.19,3.54,4,0.44833333333333336,0.32666666666666666,0.25,0.42166666666666663,3.1565000000000003,3.1565000000000003
Navodaya Cancer Hospital,23.253032,77.461701,4.35,2.09,9,0,2.12,4.14,3,0.5006666666666666,0.06222222222222222,0.5,0.44433333333333325,3.1559666666666666,3.1559666666666666
Sachin Mamta Hospital,23.249564,77.471653,2.46,3.87,33,0,3.35,3.65,4,0.4021666666666667,0.43555555555555553,0.25,0.36483333333333334,3.1518666666666664,3.1518666666666664
Protima Mullik Police Lady Hospital,23.2435872,77.4104892,2.64,4.24,39,0,2.27,4.08,5,0.4126666666666666,0.5288888888888889,0.0,0.45333333333333337,3.1516666666666664,3.1516666666666664
Hope s s hospital,23.257513,77.478446,3.02,4.08,43,0,4.04,2.1,5,0.369,0.591111111111111,0.0,0.499,3.146533333333333,3.146533333333333
Bisoniya Hospital ,23.1825879,77.4363178,2.83,3.47,11,0,3.78,2.54,1,0.34299999999999997,0.09333333333333332,1.0,0.3726666666666667,3.1463,3.1463
Pulse hospital,23.2604152,77.4053093,3.4,2.86,9,1,2.23,3.31,3,0.35266666666666663,0.3622222222222222,0.5,0.3856666666666666,3.1413666666666664,3.1413666666666664
"Yashoda Hospital, Bhopal",23.2652057,77.3936498,3.09,2.8,17,1,2.26,3.19,3,0.30349999999999994,0.48666666666666664,0.5,0.3198333333333333,3.1412,3.1412
Bhopal Fracture Hospital,23.2128356,77.4391428,4.49,2.46,16,0,3.29,3.55,5,0.5545,0.1711111111111111,0.0,0.5255000000000001,3.1177333333333332,3.1177333333333332
Sakshi co-operative hospital,23.2280354,77.4864343,2.3,2.42,33,0,3.69,3.09,2,0.2776666666666666,0.43555555555555553,0.75,0.11799999999999997,3.1160666666666663,3.1160666666666663
Rudransh Multispeciality Hospital,23.250681,77.502513,2.15,4.3,19,1,3.06,2.56,3,0.25916666666666666,0.5177777777777778,0.5,0.37249999999999994,3.113833333333333,3.113833333333333
Bhopal Eye Hospital,23.2682768,77.404835,3.52,2.79,38,0,2.09,3.83,5,0.4058333333333333,0.5133333333333333,0.0,0.3971666666666668,3.1129,3.1129
Modi Hospital,23.2759059,77.4561599,2.02,3.88,31,0,4.3,2.82,3,0.3316666666666666,0.4044444444444444,0.5,0.2856666666666666,3.1115333333333335,3.1115333333333335
Muskan Children's & General Hospital Bhopal,23.2768125,77.40287,2.24,4.28,10,0,4.75,3.48,3,0.4733333333333334,0.07777777777777777,0.5,0.3860000000000001,3.1091333333333333,3.1091333333333333
Thyrocare Centre,23.2195151,77.4826762,2.4,4.23,18,0,4.33,4.37,5,0.5505,0.2022222222222222,0.0,0.4078333333333334,3.0997666666666666,3.0997666666666666
Gayatri Hospital Anand Nagar,23.2504261,77.48461,2.29,3.88,20,1,2.52,2.09,2,0.17149999999999999,0.5333333333333333,0.75,0.33516666666666667,3.0953,3.0953
Cmas Koh E Fiza Hospital,23.264925,77.380524,2.67,4.55,19,1,3.09,2.88,5,0.3663333333333333,0.5177777777777778,0.0,0.5053333333333333,3.089433333333333,3.089433333333333
Swami Vivekanand Regional Spine Centre,23.2405328,77.4307877,3.27,2.21,16,0,2.21,3.08,1,0.28066666666666673,0.1711111111111111,1.0,0.26433333333333336,3.0786333333333333,3.0786333333333333
S.V Eye Care and Research Centre,23.2613802,77.392424,2.03,2.93,43,0,2.47,2.13,1,0.09433333333333331,0.591111111111111,1.0,0.14500000000000002,3.078333333333333,3.078333333333333
Srijan Hospital,23.255325,77.435997,2.71,4.49,8,0,3.9,3.84,4,0.5179999999999999,0.04666666666666666,0.25,0.5036666666666667,3.0755999999999997,3.0755999999999997
Miracles Children Hospital,23.2369443,77.4343295,2.19,3.99,17,0,4.22,4.86,5,0.5556666666666668,0.18666666666666665,0.0,0.33333333333333337,3.0735,3.0735
"Pushkom Maternity and Nursing Home, Bhopal",23.2534681,77.4309044,2.47,2.38,10,1,3.76,4.31,4,0.4221666666666666,0.37777777777777777,0.25,0.1431666666666667,3.072033333333333,3.072033333333333
Ma Pitamabara Multispeciality Hospital,23.2674239,77.466704,2.32,4.35,7,0,3.62,2.51,1,0.3138333333333333,0.03111111111111111,1.0,0.4111666666666666,3.0674333333333332,3.0674333333333332
Government hospital BERASIA,23.6235136,77.4306254,2.33,4.82,28,1,2.47,2.72,5,0.2828333333333334,0.6577777777777778,0.0,0.48350000000000004,3.0626333333333333,3.0626333333333333
Ronak Hospital,23.2145808,77.3922073,2.61,3.02,25,1,3.85,2.12,4,0.2575,0.611111111111111,0.25,0.26483333333333337,3.0365333333333333,3.0365333333333333
Hindustan Hospital,23.2615613,77.428758,2.57,3.56,15,0,2.77,2.48,1,0.2438333333333333,0.15555555555555553,1.0,0.3385,3.0339666666666667,3.0339666666666667
Ayush Hospital and Research Centre,23.25277,77.4309996,2.33,4.23,12,1,2.54,2.56,3,0.24200000000000002,0.40888888888888886,0.5,0.3950000000000001,3.0131666666666668,3.0131666666666668
University Hospital,23.202278,77.45071,4.63,2.6,21,0,3.29,2.11,5,0.43383333333333335,0.24888888888888888,0.0,0.5721666666666667,3.0090666666666666,3.0090666666666666
rkdf hospital,23.185204,77.450875,2.64,2.02,41,1,3.29,2.56,5,0.21766666666666667,0.8599999999999999,0.0,0.12033333333333336,3.0076,3.0076
"Gastrocare, Liver & Digestive Disease Center",23.212475,77.437564,3.5,2.0,13,0,3.82,3.06,3,0.4023333333333333,0.12444444444444444,0.5,0.275,3.0043333333333333,3.0043333333333333
Dev Shree Hospital,23.6253793,77.4235648,3.84,4.15,11,0,2.93,2.24,4,0.4081666666666667,0.09333333333333332,0.25,0.6598333333333334,2.9927,2.9927
Maheshwari Hospital,23.277062,77.372306,2.69,4.0,33,0,3.31,2.89,5,0.3568333333333334,0.43555555555555553,0.0,0.4265,2.989866666666667,2.989866666666667
Asha Niketan,23.2100099,77.440881,3.27,2.01,14,1,3.98,3.09,5,0.38966666666666666,0.43999999999999995,0.0,0.23433333333333334,2.9848,2.9848
R.K. Hospital and Research Centre (A Unit of R.K Healthcare),23.252527,77.466163,3.27,3.25,23,0,4.91,2.23,5,0.42766666666666675,0.27999999999999997,0.0,0.42033333333333334,2.9776000000000002,2.9776000000000002
Shri Siddhi Vinayak Miracles Hospital,23.191201,77.432685,2.26,2.73,12,1,3.6,2.86,3,0.25949999999999995,0.40888888888888886,0.5,0.15716666666666662,2.9680666666666666,2.9680666666666666
Narmada Advance Trauma and Critical care Institute,23.217648,77.4391609,3.02,2.44,20,0,3.87,3.32,4,0.3976666666666666,0.2333333333333333,0.25,0.253,2.9598999999999998,2.9598999999999998
Pathak's Clinic and Hi-Tech Diagnostic,23.212281,77.4406502,4.05,3.21,11,0,2.97,3.12,5,0.47633333333333333,0.09333333333333332,0.0,0.5573333333333332,2.9517,2.9517
J.K Hospital,23.179017,77.427917,2.54,2.86,22,0,3.24,3.02,3,0.29066666666666663,0.2644444444444444,0.5,0.22799999999999998,2.9277333333333333,2.9277333333333333
Himalaya Optical Bhopal,23.232979,77.429734,2.36,2.25,43,0,3.89,2.39,4,0.2195,0.591111111111111,0.25,0.10349999999999998,2.9161333333333332,2.9161333333333332
aashirwad multispeciality hospital,23.222251,77.484838,2.75,2.19,23,0,3.93,3.35,4,0.3606666666666667,0.27999999999999997,0.25,0.166,2.9133,2.9133
A.K. Hospital,23.224112,77.399811,2.89,2.08,12,0,4.43,2.87,3,0.3568333333333334,0.10888888888888888,0.5,0.1751666666666667,2.8944666666666667,2.8944666666666667
Zindagi Hospital,23.269603,77.467351,2.64,4.69,11,0,2.58,3.92,5,0.43983333333333335,0.09333333333333332,0.0,0.5208333333333335,2.886,2.886
Matratva Hospital,23.187859,77.41736,3.27,3.97,14,0,2.94,3.02,5,0.41133333333333333,0.13999999999999999,0.0,0.5283333333333334,2.8805,2.8805
Shradha Hospital,23.2955194,77.3457958,3.19,2.46,7,0,4.75,3.4,5,0.48516666666666663,0.03111111111111111,0.0,0.2871666666666667,2.8372333333333333,2.8372333333333333
"Arnav Hospital, Bhopal",23.252094,77.504064,2.75,3.26,23,0,3.32,3.1,5,0.3485,0.27999999999999997,0.0,0.3265,2.8307,2.8307
Shri Sai Hospital,23.303048,77.41221,2.72,2.06,41,0,3.99,2.22,5,0.24166666666666672,0.5599999999999999,0.0,0.14100000000000007,2.8248,2.8248
Pushpanjali Hsopital,23.2014132,77.4344569,2.8,3.61,24,0,3.45,2.45,5,0.3155,0.2955555555555555,0.0,0.38816666666666666,2.811366666666667,2.811366666666667
Galaxy hospital,23.171374,77.422264,2.94,3.28,12,0,3.22,2.8,4,0.33499999999999996,0.10888888888888888,0.25,0.3643333333333333,2.8059666666666665,2.8059666666666665
Somnath Hospital,23.2958957,77.3450567,3.11,2.94,31,0,2.28,2.68,5,0.26316666666666666,0.4044444444444444,0.0,0.3445,2.801433333333333,2.801433333333333
Government Hospital Toomda,23.3149468,77.1909271,2.8,2.38,23,0,3.79,3.07,5,0.3386666666666666,0.27999999999999997,0.0,0.2036666666666666,2.7790999999999997,2.7790999999999997
Kanha Maternity & Child Care Hospital,23.196031,77.434562,2.46,2.64,13,1,3.78,2.55,5,0.2593333333333333,0.4244444444444444,0.0,0.18033333333333335,2.761433333333333,2.761433333333333
Faith and Hope Hospital,23.2343749,77.4025494,2.63,2.32,20,0,4.23,3.16,5,0.3541666666666667,0.2333333333333333,0.0,0.16349999999999998,2.7553,2.7553
Sunetra Eye Hospital,23.266097,77.400791,2.8,3.31,14,0,4.22,2.52,5,0.3588333333333333,0.13999999999999999,0.0,0.3431666666666666,2.7462,2.7462
Tanushree Female Hospital,23.2516574,77.4167892,2.74,2.94,26,0,3.87,2.19,5,0.277,0.32666666666666666,0.0,0.2766666666666667,2.7435,2.7435
Lord Buddha Hospital,23.2386597,77.4859876,2.74,3.62,6,0,2.99,2.2,4,0.25333333333333335,0.015555555555555555,0.25,0.3786666666666667,2.617766666666667,2.617766666666667
RBM Advanced Eye Hospital,23.209026,77.418302,2.17,2.67,8,0,3.49,3.42,5,0.29466666666666663,0.04666666666666666,0.0,0.13166666666666665,2.5164999999999997,2.5164999999999997
Dr Rahul Agarwal ENT Clinic,23.2197879,77.4341465,2.17,2.41,30,0,2.12,2.52,5,0.10033333333333333,0.3888888888888889,0.0,0.09266666666666667,2.4699666666666666,2.4699666666666666
